<?xml version="1.0"?>
<gpx version="1.1" creator="Xcode">
    
    <!--
     Provide one or more waypoints containing a latitude/longitude pair. If you provide one
     waypoint, Xcode will simulate that specific location. If you provide multiple waypoints,
     Xcode will simulate a route visiting each waypoint.
     -->
<!--    <wpt lat="3.1420962" lon="101.6232076">-->
<!--    <name>One Utama</name>-->


<!--    <wpt lat="3.1289662" lon="101.6141438">-->
<!--    <name>Jaya One</name>-->
    
    <wpt lat="3.1184089" lon="101.6332484">
    <name> Nearby Jaya One</name>
    
<!--    <wpt lat="3.1182974" lon="101.6352253">-->
<!--    <name> Columbia</name>-->
    
<!--        <wpt lat="3.1869496" lon="101.4961652">-->
<!--        <name>PETRONAS Damansara Jaya 2</name>-->
        <!--
         Optionally provide a time element for each waypoint. Xcode will interpolate movement
         at a rate of speed based on the time elapsed between each waypoint. If you do not provide
         a time element, then Xcode will use a fixed rate of speed.
         
         Waypoints must be sorted by time in ascending order.
         -->
        <time>2021-01-01T14:55:37Z</time>
    </wpt>
    
</gpx>
